{
  "version": 0.6,
  "generator": "Overpass API 0.7.57.1 74a55df1",
  "osm3s": {
    "timestamp_osm_base": "2022-02-19T00:13:34Z",
    "timestamp_areas_base": "2022-02-19T00:03:25Z",
    "copyright": "The data included in this document is from www.openstreetmap.org. The data is made available under ODbL."
  },
  "elements": [
    {
      "type": "node",
      "id": 322520614,
      "lat": 53.3940913,
      "lon": -6.0668424,
      "tags": {
        "man_made": "lighthouse",
        "name": "Howth Lighthouse",
        "seamark:light:1:character": "Fl",
        "seamark:light:1:colour": "white",
        "seamark:light:1:group": "2",
        "seamark:light:1:height": "13",
        "seamark:light:1:period": "7.5",
        "seamark:light:1:range": "12",
        "seamark:light:1:sector_end": "295",
        "seamark:light:1:sector_start": "256",
        "seamark:light:1:sequence": "0.7+(1.3),0.7+(4.8)",
        "seamark:light:2:character": "Fl",
        "seamark:light:2:colour": "red",
        "seamark:light:2:group": "2",
        "seamark:light:2:height": "13",
        "seamark:light:2:period": "7.5",
        "seamark:light:2:range": "9",
        "seamark:light:2:sector_end": "256",
        "seamark:light:2:sector_start": "295",
        "seamark:light:2:sequence": "0.7+(1.3),0.7+(4.8)",
        "seamark:light:reference": "A 5900",
        "seamark:name": "Howth",
        "seamark:type": "light_major",
        "source": "US NGA Pub. 114. 2011-05-26.",
        "wikidata": "Q26214771"
      }
    },
    {
      "type": "node",
      "id": 322520617,
      "lat": 53.3024253,
      "lon": -6.1270552,
      "tags": {
        "man_made": "lighthouse",
        "name": "Dun Laoghaire East Lighthouse",
        "seamark:fog_signal:category": "horn",
        "seamark:fog_signal:group": "1",
        "seamark:fog_signal:period": "30",
        "seamark:light:character": "Fl",
        "seamark:light:colour": "red",
        "seamark:light:group": "2",
        "seamark:light:height": "16",
        "seamark:light:period": "8",
        "seamark:light:range": "17",
        "seamark:light:reference": "A 5872",
        "seamark:light:sequence": "1+(1)+1+(5)",
        "seamark:name": "Dun Laoghaire East",
        "seamark:type": "light_major",
        "source": "US NGA Pub. 114. 2011-05-26.",
        "wikidata": "Q28374985"
      }
    },
    {
      "type": "node",
      "id": 322520623,
      "lat": 55.2258654,
      "lon": -6.9290046,
      "tags": {
        "alt_name": "Strove Lighthouse",
        "alt_name_1": "Shrove Lighthouse",
        "man_made": "lighthouse",
        "name": "Inishowen Lighthouse",
        "seamark:light:1:character": "Fl",
        "seamark:light:1:colour": "green",
        "seamark:light:1:group": "2",
        "seamark:light:1:height": "28",
        "seamark:light:1:period": "10",
        "seamark:light:1:range": "14",
        "seamark:light:1:sector_end": "211",
        "seamark:light:1:sector_start": "197",
        "seamark:light:1:sequence": "1+(2),1+(6)",
        "seamark:light:2:character": "Fl",
        "seamark:light:2:colour": "white",
        "seamark:light:2:group": "2",
        "seamark:light:2:height": "28",
        "seamark:light:2:period": "10",
        "seamark:light:2:range": "18",
        "seamark:light:2:sector_end": "249",
        "seamark:light:2:sector_start": "211",
        "seamark:light:2:sequence": "1+(2),1+(6)",
        "seamark:light:3:character": "Fl",
        "seamark:light:3:colour": "red",
        "seamark:light:3:group": "2",
        "seamark:light:3:height": "28",
        "seamark:light:3:period": "10",
        "seamark:light:3:range": "14",
        "seamark:light:3:sector_end": "0",
        "seamark:light:3:sector_start": "249",
        "seamark:light:3:sequence": "1+(2),1+(6)",
        "seamark:light:reference": "A 6084",
        "seamark:name": "Inishowen Head",
        "seamark:type": "light_major",
        "source": "Commissioners of Irish Lights",
        "wikidata": "Q28374982"
      }
    },
    {
      "type": "node",
      "id": 322520624,
      "lat": 53.1538954,
      "lon": -9.2649505,
      "tags": {
        "man_made": "lighthouse",
        "seamark:landmark:height": "9",
        "seamark:light:1:character": "Fl",
        "seamark:light:1:colour": "white",
        "seamark:light:1:height": "20",
        "seamark:light:1:period": "5",
        "seamark:light:1:range": "11",
        "seamark:light:1:sector_end": "268",
        "seamark:light:1:sector_start": "45",
        "seamark:light:1:sequence": "1+(4)",
        "seamark:light:2:character": "Fl",
        "seamark:light:2:colour": "red",
        "seamark:light:2:height": "20",
        "seamark:light:2:period": "5",
        "seamark:light:2:range": "8",
        "seamark:light:2:sector_end": "276",
        "seamark:light:2:sector_start": "268",
        "seamark:light:2:sequence": "1+(4)",
        "seamark:light:reference": "A 6332",
        "seamark:radio_station:category": "ais",
        "seamark:radio_station:mmsi": "992501168",
        "seamark:type": "landmark",
        "source": "Commissioners of Irish Lights",
        "wikidata": "Q28333647"
      }
    },
    {
      "type": "node",
      "id": 322520639,
      "lat": 53.3032287,
      "lon": -6.1308793,
      "tags": {
        "man_made": "lighthouse",
        "name": "Dun Laoghaire West Lighthouse",
        "seamark:light:character": "Fl",
        "seamark:light:colour": "green",
        "seamark:light:group": "2",
        "seamark:light:height": "11",
        "seamark:light:period": "8",
        "seamark:light:range": "7",
        "seamark:light:reference": "A 5874",
        "seamark:light:sequence": "1+(1)+1+(5)",
        "seamark:type": "light_minor",
        "source": "Commissioners of Irish Lights",
        "wikidata": "Q28374986"
      }
    },
    {
      "type": "node",
      "id": 322520641,
      "lat": 52.627811,
      "lon": -9.5882451,
      "tags": {
        "man_made": "mast",
        "name": "Corlis Point (Querrin Quay) Rear Leading Light",
        "seamark:information": "High intensity by day. Nominal Range: By day 7 nautical miles, By night 10 nautical miles",
        "seamark:light:1:category": "rear",
        "seamark:light:1:character": "Oc",
        "seamark:light:1:colour": "white",
        "seamark:light:1:exhibition": "24h",
        "seamark:light:1:height": "28",
        "seamark:light:1:period": "5",
        "seamark:light:1:range": "10",
        "seamark:light:1:sequence": "4+(1)",
        "seamark:light:2:category": "air_obstruction",
        "seamark:light:2:character": "F",
        "seamark:light:2:colour": "red",
        "seamark:light:2:height": "29",
        "seamark:light:reference": "A 6340.51",
        "seamark:name": "Corlis Point Rear",
        "seamark:source": "US Pub.114.(2020)",
        "seamark:type": "light_minor",
        "source": "Commissioners of Irish Lights",
        "start_date": "1998",
        "tower:construction": "lattice",
        "tower:type": "lighting"
      }
    },
    {
      "type": "node",
      "id": 322520643,
      "lat": 51.542842,
      "lon": -9.8486088,
      "tags": {
        "man_made": "lighthouse",
        "name": "Sheep's Head Lighthouse",
        "operator": "Commissioners of Irish Lights",
        "seamark:light:1:character": "Fl",
        "seamark:light:1:colour": "red",
        "seamark:light:1:group": "3",
        "seamark:light:1:height": "83",
        "seamark:light:1:period": "15",
        "seamark:light:1:range": "15",
        "seamark:light:1:sector_end": "17",
        "seamark:light:1:sector_start": "7",
        "seamark:light:1:sequence": "1+(1.5),1+(1.5),1+(9)",
        "seamark:light:2:character": "Fl",
        "seamark:light:2:colour": "white",
        "seamark:light:2:group": "3",
        "seamark:light:2:height": "83",
        "seamark:light:2:period": "15",
        "seamark:light:2:range": "18",
        "seamark:light:2:sector_end": "212",
        "seamark:light:2:sector_start": "17",
        "seamark:light:2:sequence": "1+(1.5),1+(1.5),1+(9)",
        "seamark:light:reference": "A 6432",
        "seamark:name": "Sheep's Head",
        "seamark:radio_station:category": "ais",
        "seamark:radio_station:mmsi": "992501129",
        "seamark:type": "light_major",
        "source": "Commissioners of Irish Lights",
        "wikidata": "Q28333631"
      }
    },
    {
      "type": "node",
      "id": 322520647,
      "lat": 51.7930377,
      "lon": -8.2546661,
      "tags": {
        "seamark:light:1:character": "Fl",
        "seamark:light:1:colour": "red",
        "seamark:light:1:exhibition": "night",
        "seamark:light:1:height": "30",
        "seamark:light:1:period": "3",
        "seamark:light:1:range": "12",
        "seamark:light:1:sector_end": "292",
        "seamark:light:1:sector_start": "266",
        "seamark:light:1:sequence": "1+(2)",
        "seamark:light:2:character": "Fl",
        "seamark:light:2:colour": "white",
        "seamark:light:2:exhibition": "night",
        "seamark:light:2:height": "30",
        "seamark:light:2:period": "3",
        "seamark:light:2:range": "18",
        "seamark:light:2:sector_end": "16",
        "seamark:light:2:sector_start": "292",
        "seamark:light:2:sequence": "1+(2)",
        "seamark:light:3:character": "Fl",
        "seamark:light:3:colour": "red",
        "seamark:light:3:exhibition": "night",
        "seamark:light:3:height": "30",
        "seamark:light:3:period": "3",
        "seamark:light:3:range": "12",
        "seamark:light:3:sector_end": "33",
        "seamark:light:3:sector_start": "16",
        "seamark:light:3:sequence": "1+(2)",
        "seamark:light:4:character": "Fl",
        "seamark:light:4:colour": "white",
        "seamark:light:4:exhibition": "night",
        "seamark:light:4:height": "30",
        "seamark:light:4:period": "3",
        "seamark:light:4:range": "18",
        "seamark:light:4:sector_end": "159",
        "seamark:light:4:sector_start": "33",
        "seamark:light:4:sequence": "1+(2)",
        "seamark:light:5:character": "Fl",
        "seamark:light:5:colour": "red",
        "seamark:light:5:exhibition": "night",
        "seamark:light:5:height": "30",
        "seamark:light:5:period": "3",
        "seamark:light:5:range": "12",
        "seamark:light:5:sector_end": "206",
        "seamark:light:5:sector_start": "159",
        "seamark:light:5:sequence": "1+(2)",
        "seamark:light:reference": "A 5718",
        "seamark:name": "Roches Point",
        "seamark:radio_station:category": "ais",
        "seamark:radio_station:mmsi": "992501099",
        "seamark:type": "light_major",
        "source": "Commissioners of Irish Lights",
        "wikidata": "Q7353828"
      }
    },
    {
      "type": "node",
      "id": 322520650,
      "lat": 55.19805,
      "lon": -7.5541399,
      "tags": {
        "man_made": "lighthouse",
        "name": "Dunree Lighthouse",
        "seamark:light:1:character": "Fl",
        "seamark:light:1:colour": "red",
        "seamark:light:1:group": "2",
        "seamark:light:1:height": "46",
        "seamark:light:1:period": "5",
        "seamark:light:1:range": "9",
        "seamark:light:1:sector_end": "328",
        "seamark:light:1:sector_start": "320",
        "seamark:light:1:sequence": "0.5+(1),0.5+(3)",
        "seamark:light:2:character": "Fl",
        "seamark:light:2:colour": "white",
        "seamark:light:2:group": "2",
        "seamark:light:2:height": "46",
        "seamark:light:2:period": "5",
        "seamark:light:2:range": "12",
        "seamark:light:2:sector_end": "183",
        "seamark:light:2:sector_start": "328",
        "seamark:light:2:sequence": "0.5+(1),0.5+(3)",
        "seamark:light:3:character": "Fl",
        "seamark:light:3:colour": "red",
        "seamark:light:3:group": "2",
        "seamark:light:3:height": "46",
        "seamark:light:3:period": "5",
        "seamark:light:3:range": "9",
        "seamark:light:3:sector_end": "196",
        "seamark:light:3:sector_start": "183",
        "seamark:light:3:sequence": "0.5+(1),0.5+(3)",
        "seamark:light:reference": "A 6172",
        "seamark:name": "Dunree Head",
        "seamark:radio_station:category": "ais",
        "seamark:radio_station:mmsi": "992501217",
        "seamark:type": "light_minor",
        "source": "Commissioners of Irish Lights",
        "wikidata": "Q28496229"
      }
    },
    {
      "type": "node",
      "id": 322520654,
      "lat": 54.5693388,
      "lon": -8.459921,
      "tags": {
        "alt_name": "St. John's Point",
        "man_made": "lighthouse",
        "name": "Saint John's Point",
        "seamark:light:character": "Fl",
        "seamark:light:colour": "white",
        "seamark:light:height": "30",
        "seamark:light:period": "6",
        "seamark:light:range": "14",
        "seamark:light:reference": "A 6222",
        "seamark:light:sequence": "1.5+(4.5)",
        "seamark:name": "St. John's Point",
        "seamark:radio_station:category": "ais",
        "seamark:radio_station:mmsi": "992501197",
        "seamark:type": "light_minor",
        "source": "Commissioners of Irish Lights",
        "wikidata": "Q28376016"
      }
    },
    {
      "type": "node",
      "id": 322520677,
      "lat": 51.6957364,
      "lon": -8.4996355,
      "tags": {
        "man_made": "lighthouse",
        "name": "Charlesfort Lighthouse",
        "seamark:light:1:character": "Fl",
        "seamark:light:1:colour": "green",
        "seamark:light:1:height": "18",
        "seamark:light:1:period": "5",
        "seamark:light:1:range": "6",
        "seamark:light:1:sector_end": "358",
        "seamark:light:1:sector_start": "348",
        "seamark:light:1:sequence": "1+(4)",
        "seamark:light:2:character": "Fl",
        "seamark:light:2:colour": "white",
        "seamark:light:2:height": "18",
        "seamark:light:2:period": "5",
        "seamark:light:2:range": "9",
        "seamark:light:2:sector_end": "4",
        "seamark:light:2:sector_start": "358",
        "seamark:light:2:sequence": "1+(4)",
        "seamark:light:3:character": "Fl",
        "seamark:light:3:colour": "red",
        "seamark:light:3:height": "18",
        "seamark:light:3:period": "5",
        "seamark:light:3:range": "6",
        "seamark:light:3:sector_end": "168",
        "seamark:light:3:sector_start": "4",
        "seamark:light:3:sequence": "1+(4)",
        "seamark:light:reference": "A 5712",
        "seamark:name": "Charles Fort",
        "seamark:type": "light_minor",
        "source": "Commissioners of Irish Lights",
        "wikidata": "Q28333617"
      }
    },
    {
      "type": "node",
      "id": 322520679,
      "lat": 51.9428058,
      "lon": -7.8421769,
      "tags": {
        "man_made": "lighthouse",
        "name": "Youghal Lighthouse",
        "seamark:light:1:character": "Fl",
        "seamark:light:1:colour": "white",
        "seamark:light:1:height": "24",
        "seamark:light:1:period": "2.5",
        "seamark:light:1:range": "17",
        "seamark:light:1:sector_end": "273",
        "seamark:light:1:sector_start": "183",
        "seamark:light:1:sequence": "0.5+(2)",
        "seamark:light:2:character": "Fl",
        "seamark:light:2:colour": "red",
        "seamark:light:2:height": "24",
        "seamark:light:2:period": "2.5",
        "seamark:light:2:range": "14",
        "seamark:light:2:sector_end": "295",
        "seamark:light:2:sector_start": "273",
        "seamark:light:2:sequence": "0.5+(2)",
        "seamark:light:3:character": "Fl",
        "seamark:light:3:colour": "white",
        "seamark:light:3:height": "24",
        "seamark:light:3:period": "2.5",
        "seamark:light:3:range": "17",
        "seamark:light:3:sector_end": "307",
        "seamark:light:3:sector_start": "295",
        "seamark:light:3:sequence": "0.5+(2)",
        "seamark:light:4:character": "Fl",
        "seamark:light:4:colour": "red",
        "seamark:light:4:height": "24",
        "seamark:light:4:period": "2.5",
        "seamark:light:4:range": "14",
        "seamark:light:4:sector_end": "351",
        "seamark:light:4:sector_start": "307",
        "seamark:light:4:sequence": "0.5+(2)",
        "seamark:light:5:character": "Fl",
        "seamark:light:5:colour": "white",
        "seamark:light:5:height": "24",
        "seamark:light:5:period": "2.5",
        "seamark:light:5:range": "17",
        "seamark:light:5:sector_end": "3",
        "seamark:light:5:sector_start": "351",
        "seamark:light:5:sequence": "0.5+(2)",
        "seamark:light:reference": "A 5776",
        "seamark:name": "Youghal",
        "seamark:type": "light_major",
        "source": "Commissioners of Irish Lights",
        "wikidata": "Q5856537"
      }
    },
    {
      "type": "node",
      "id": 322520693,
      "lat": 52.0781281,
      "lon": -7.5529837,
      "tags": {
        "man_made": "lighthouse",
        "name": "Ballinacourty Point Lighthouse",
        "seamark:light:1:character": "Fl",
        "seamark:light:1:colour": "green",
        "seamark:light:1:group": "2",
        "seamark:light:1:height": "16",
        "seamark:light:1:period": "10",
        "seamark:light:1:range": "8",
        "seamark:light:1:sector_end": "274",
        "seamark:light:1:sector_start": "245",
        "seamark:light:1:sequence": "0.5+(1),0.5+(8)",
        "seamark:light:2:character": "Fl",
        "seamark:light:2:colour": "white",
        "seamark:light:2:group": "2",
        "seamark:light:2:height": "16",
        "seamark:light:2:period": "10",
        "seamark:light:2:range": "10",
        "seamark:light:2:sector_end": "302",
        "seamark:light:2:sector_start": "274",
        "seamark:light:2:sequence": "0.5+(1),0.5+(8)",
        "seamark:light:3:character": "Fl",
        "seamark:light:3:colour": "red",
        "seamark:light:3:group": "2",
        "seamark:light:3:height": "16",
        "seamark:light:3:period": "10",
        "seamark:light:3:range": "8",
        "seamark:light:3:sector_end": "325",
        "seamark:light:3:sector_start": "302",
        "seamark:light:3:sequence": "0.5+(1),0.5+(8)",
        "seamark:light:4:character": "Fl",
        "seamark:light:4:colour": "white",
        "seamark:light:4:group": "2",
        "seamark:light:4:height": "16",
        "seamark:light:4:period": "10",
        "seamark:light:4:range": "10",
        "seamark:light:4:sector_end": "117",
        "seamark:light:4:sector_start": "325",
        "seamark:light:4:sequence": "0.5+(1),0.5+(8)",
        "seamark:light:reference": "A 5782",
        "seamark:name": "Ballinacourty Point.",
        "seamark:type": "light_minor",
        "source": "Commissioners of Irish Lights",
        "wikidata": "Q28333614"
      }
    },
    {
      "type": "node",
      "id": 322520699,
      "lat": 55.2762031,
      "lon": -7.6319899,
      "tags": {
        "man_made": "lighthouse",
        "name": "Fanad Head Lighthouse",
        "seamark:light:1:character": "Fl",
        "seamark:light:1:colour": "red",
        "seamark:light:1:group": "5",
        "seamark:light:1:height": "39",
        "seamark:light:1:period": "20",
        "seamark:light:1:range": "14",
        "seamark:light:1:sector_end": "110",
        "seamark:light:1:sector_start": "100",
        "seamark:light:1:sequence": "1+(1.5),1+(1.5),1+(1.5),1+(1.5),1+(9)",
        "seamark:light:2:character": "Fl",
        "seamark:light:2:colour": "white",
        "seamark:light:2:group": "5",
        "seamark:light:2:height": "39",
        "seamark:light:2:period": "20",
        "seamark:light:2:range": "18",
        "seamark:light:2:sector_end": "313",
        "seamark:light:2:sector_start": "110",
        "seamark:light:2:sequence": "1+(1.5),1+(1.5),1+(1.5),1+(1.5),1+(9)",
        "seamark:light:3:character": "Fl",
        "seamark:light:3:colour": "red",
        "seamark:light:3:group": "5",
        "seamark:light:3:height": "39",
        "seamark:light:3:period": "20",
        "seamark:light:3:range": "14",
        "seamark:light:3:sector_end": "345",
        "seamark:light:3:sector_start": "313",
        "seamark:light:3:sequence": "1+(1.5),1+(1.5),1+(1.5),1+(1.5),1+(9)",
        "seamark:light:4:character": "Fl",
        "seamark:light:4:colour": "white",
        "seamark:light:4:group": "5",
        "seamark:light:4:height": "39",
        "seamark:light:4:period": "20",
        "seamark:light:4:range": "18",
        "seamark:light:4:sector_end": "100",
        "seamark:light:4:sector_start": "345",
        "seamark:light:4:sequence": "1+(1.5),1+(1.5),1+(1.5),1+(1.5),1+(9)",
        "seamark:light:reference": "A 6168",
        "seamark:name": "Fanad Head",
        "seamark:radio_station:category": "ais",
        "seamark:radio_station:mmsi": "992501215",
        "seamark:type": "light_major",
        "source": "Commissioners of Irish Lights",
        "wikidata": "Q28374980"
      }
    },
    {
      "type": "node",
      "id": 322520701,
      "lat": 52.58015,
      "lon": -9.710217,
      "tags": {
        "man_made": "lighthouse",
        "name": "Kilcredaun Head Lighthouse",
        "seamark:light:character": "Fl",
        "seamark:light:colour": "white",
        "seamark:light:height": "41",
        "seamark:light:period": "6",
        "seamark:light:range": "15",
        "seamark:light:reference": "A 6340",
        "seamark:light:sequence": "0.1+(5.9)",
        "seamark:name": "Kilcredaun Head",
        "seamark:type": "light_major",
        "source": "Commissioners of Irish Lights",
        "wikidata": "Q28375572"
      }
    },
    {
      "type": "node",
      "id": 322520703,
      "lat": 51.47655,
      "lon": -9.70455,
      "tags": {
        "man_made": "lighthouse",
        "name": "Crookhaven Lighthouse",
        "seamark:light:1:character": "LFl",
        "seamark:light:1:colour": "white",
        "seamark:light:1:height": "20",
        "seamark:light:1:period": "8",
        "seamark:light:1:range": "11",
        "seamark:light:1:sector_end": "340",
        "seamark:light:1:sector_start": "250",
        "seamark:light:1:sequence": "2+(6)",
        "seamark:light:2:character": "LFl",
        "seamark:light:2:colour": "red",
        "seamark:light:2:height": "20",
        "seamark:light:2:period": "8",
        "seamark:light:2:range": "11",
        "seamark:light:2:sector_end": "348",
        "seamark:light:2:sector_start": "281",
        "seamark:light:2:sequence": "2+(6)",
        "seamark:light:3:character": "LFl",
        "seamark:light:3:colour": "white",
        "seamark:light:3:height": "20",
        "seamark:light:3:period": "8",
        "seamark:light:3:range": "13",
        "seamark:light:3:sector_end": "70",
        "seamark:light:3:sector_start": "348",
        "seamark:light:3:sequence": "2+(6)",
        "seamark:light:reference": "A 6450",
        "seamark:name": "Crookhaven",
        "seamark:radio_station:category": "ais",
        "seamark:radio_station:mmsi": "992501124",
        "seamark:type": "light_minor",
        "source": "Commissioners of Irish Lights",
        "wikidata": "Q28333621"
      }
    },
    {
      "type": "node",
      "id": 322520727,
      "lat": 51.9928567,
      "lon": -7.5864951,
      "tags": {
        "man_made": "lighthouse",
        "name": "Mionn Ard",
        "name:en": "Mine Head Lighthouse",
        "name:ga": "Mionn Ard",
        "seamark:light:1:character": "Fl",
        "seamark:light:1:colour": "white",
        "seamark:light:1:group": "4",
        "seamark:light:1:height": "87",
        "seamark:light:1:period": "30",
        "seamark:light:1:range": "12",
        "seamark:light:1:sector_end": "52",
        "seamark:light:1:sector_start": "228",
        "seamark:light:1:sequence": "0.1+(3.7),0.1+(3.7),0.1+(3.7),0.1+(18.5)",
        "seamark:light:reference": "A 5778",
        "seamark:name": "Mine Head",
        "seamark:radio_station:category": "ais",
        "seamark:radio_station:mmsi": "992501085",
        "seamark:source": "US Pub.114.(2020)",
        "seamark:type": "light_major",
        "source": "Commissioners of Irish Lights",
        "wikidata": "Q13592550",
        "wikipedia": "en:Mine Head Lighthouse"
      }
    },
    {
      "type": "node",
      "id": 1352863234,
      "lat": 54.2263063,
      "lon": -5.659298,
      "tags": {
        "man_made": "lighthouse",
        "name": "Saint John's Point (Co. Down) Lighthouse",
        "seamark:fog_signal:category": "horn",
        "seamark:light:character": "Q",
        "seamark:light:colour": "white",
        "seamark:light:group": "2",
        "seamark:light:height": "37",
        "seamark:light:period": "7.5",
        "seamark:light:range": "25",
        "seamark:light:reference": "A 5958",
        "seamark:light:sequence": "0.2+(1)+0.2+(6.1)",
        "seamark:name": "St. John's Point",
        "seamark:radio_station:category": "ais",
        "seamark:radio_station:mmsi": "992351005",
        "seamark:type": "light_major",
        "wikidata": "Q1291134"
      }
    },
    {
      "type": "node",
      "id": 1561060635,
      "lat": 52.6128167,
      "lon": -9.0992167,
      "tags": {
        "seamark:light:category": "upper",
        "seamark:light:character": "Oc",
        "seamark:light:colour": "white",
        "seamark:light:height": "16",
        "seamark:light:period": "4",
        "seamark:light:range": "10",
        "seamark:light:reference": "A 6347.1",
        "seamark:light:sequence": "3+(1)",
        "seamark:type": "light_minor",
        "source": "US NGA Pub. 114. 2011-05-26."
      }
    },
    {
      "type": "node",
      "id": 1561060640,
      "lat": 52.5936167,
      "lon": -9.2324833,
      "tags": {
        "seamark:light:1:character": "Fl",
        "seamark:light:1:colour": "red",
        "seamark:light:1:group": "3",
        "seamark:light:1:height": "16",
        "seamark:light:1:period": "10",
        "seamark:light:1:range": "5",
        "seamark:light:1:sector_end": "72",
        "seamark:light:1:sector_start": "60",
        "seamark:light:1:sequence": "0.3+(1),0.3+(1),0.3+(7.1)",
        "seamark:light:2:character": "Fl",
        "seamark:light:2:colour": "white",
        "seamark:light:2:group": "3",
        "seamark:light:2:height": "16",
        "seamark:light:2:period": "10",
        "seamark:light:2:range": "8",
        "seamark:light:2:sector_end": "242",
        "seamark:light:2:sector_start": "72",
        "seamark:light:2:sequence": "0.3+(1),0.3+(1),0.3+(7.1)",
        "seamark:light:3:character": "Fl",
        "seamark:light:3:colour": "red",
        "seamark:light:3:group": "3",
        "seamark:light:3:height": "16",
        "seamark:light:3:period": "10",
        "seamark:light:3:range": "5",
        "seamark:light:3:sector_end": "260",
        "seamark:light:3:sector_start": "242",
        "seamark:light:3:sequence": "0.3+(1),0.3+(1),0.3+(7.1)",
        "seamark:light:reference": "A 6345",
        "seamark:name": "Garraunbaun Point",
        "seamark:type": "light_minor",
        "source": "US NGA Pub. 114. 2011-05-26."
      }
    },
    {
      "type": "node",
      "id": 1561064188,
      "lat": 53.2669167,
      "lon": -9.5559167,
      "tags": {
        "seamark:light:category": "upper",
        "seamark:light:character": "Oc",
        "seamark:light:colour": "white",
        "seamark:light:height": "8",
        "seamark:light:period": "3",
        "seamark:light:reference": "A 6305.1",
        "seamark:light:sequence": "2+(1)",
        "seamark:type": "light_minor",
        "source": "US NGA Pub. 114. 2011-05-26."
      }
    },
    {
      "type": "node",
      "id": 1561064225,
      "lat": 53.2670833,
      "lon": -9.5565167,
      "tags": {
        "seamark:light:category": "lower",
        "seamark:light:character": "Oc",
        "seamark:light:colour": "white",
        "seamark:light:height": "7",
        "seamark:light:period": "3",
        "seamark:light:reference": "A 6305",
        "seamark:light:sequence": "2+(1)",
        "seamark:type": "light_minor",
        "source": "US NGA Pub. 114. 2011-05-26."
      }
    },
    {
      "type": "node",
      "id": 1561064568,
      "lat": 53.5748667,
      "lon": -10.1290667,
      "tags": {
        "seamark:light:1:character": "Fl",
        "seamark:light:1:colour": "white",
        "seamark:light:1:group": "3",
        "seamark:light:1:height": "20",
        "seamark:light:1:period": "15",
        "seamark:light:1:range": "6",
        "seamark:light:1:sector_end": "91",
        "seamark:light:1:sector_start": "300",
        "seamark:light:1:sequence": "0.5+(3.5),0.5+(3.5),0.5+(6.5)",
        "seamark:light:2:character": "Fl",
        "seamark:light:2:colour": "red",
        "seamark:light:2:group": "3",
        "seamark:light:2:height": "20",
        "seamark:light:2:period": "15",
        "seamark:light:2:range": "3",
        "seamark:light:2:sector_end": "124",
        "seamark:light:2:sector_start": "91",
        "seamark:light:2:sequence": "0.5+(3.5),0.5+(3.5),0.5+(6.5)",
        "seamark:light:3:character": "Fl",
        "seamark:light:3:colour": "green",
        "seamark:light:3:group": "3",
        "seamark:light:3:height": "20",
        "seamark:light:3:period": "15",
        "seamark:light:3:range": "3",
        "seamark:light:3:sector_end": "221",
        "seamark:light:3:sector_start": "124",
        "seamark:light:3:sequence": "0.5+(3.5),0.5+(3.5),0.5+(6.5)",
        "seamark:light:reference": "A 6284",
        "seamark:type": "light_minor",
        "source": "US NGA Pub. 114. 2011-05-26."
      }
    },
    {
      "type": "node",
      "id": 1561066333,
      "lat": 54.82705,
      "lon": -8.5607,
      "tags": {
        "seamark:light:character": "LFl",
        "seamark:light:colour": "white",
        "seamark:light:height": "39",
        "seamark:light:period": "10",
        "seamark:light:range": "4",
        "seamark:light:reference": "A 6215",
        "seamark:light:sequence": "2+(8)",
        "seamark:type": "light_minor",
        "source": "US NGA Pub. 114. 2011-05-26."
      }
    },
    {
      "type": "node",
      "id": 1561067228,
      "lat": 55.1132,
      "lon": -8.3152667,
      "tags": {
        "seamark:light:category": "upper",
        "seamark:light:character": "Oc",
        "seamark:light:colour": "white",
        "seamark:light:height": "17",
        "seamark:light:period": "8",
        "seamark:light:reference": "A 6203.51",
        "seamark:light:sequence": "6+(2)",
        "seamark:type": "light_minor",
        "source": "US NGA Pub. 114. 2011-05-26."
      }
    },
    {
      "type": "node",
      "id": 1561067349,
      "lat": 55.1138167,
      "lon": -8.3162167,
      "tags": {
        "seamark:light:category": "lower",
        "seamark:light:character": "Oc",
        "seamark:light:colour": "white",
        "seamark:light:height": "12",
        "seamark:light:period": "8",
        "seamark:light:range": "3",
        "seamark:light:reference": "A 6203.5",
        "seamark:light:sequence": "6+(2)",
        "seamark:type": "light_minor",
        "source": "US NGA Pub. 114. 2011-05-26."
      }
    },
    {
      "type": "node",
      "id": 1561068044,
      "lat": 55.2522833,
      "lon": -7.7816833,
      "tags": {
        "seamark:light:1:character": "Fl",
        "seamark:light:1:colour": "white",
        "seamark:light:1:height": "9",
        "seamark:light:1:period": "3",
        "seamark:light:1:range": "3",
        "seamark:light:1:sector_end": "357",
        "seamark:light:1:sector_start": "177",
        "seamark:light:1:sequence": "0.3+(2.7)",
        "seamark:light:reference": "A 6180",
        "seamark:type": "light_minor",
        "source": "US NGA Pub. 114. 2011-05-26."
      }
    },
    {
      "type": "node",
      "id": 1561070984,
      "lat": 55.18865,
      "lon": -6.7209333,
      "tags": {
        "seamark:light:1:character": "Oc",
        "seamark:light:1:colour": "red",
        "seamark:light:1:height": "21",
        "seamark:light:1:period": "10",
        "seamark:light:1:range": "5",
        "seamark:light:1:sector_end": "220",
        "seamark:light:1:sector_start": "40",
        "seamark:light:1:sequence": "7+(3)",
        "seamark:light:reference": "A 6073",
        "seamark:type": "light_minor",
        "source": "US NGA Pub. 114. 2011-05-26."
      }
    },
    {
      "type": "node",
      "id": 1561071596,
      "lat": 54.9934867,
      "lon": -5.987942,
      "tags": {
        "seamark:light:character": "Fl",
        "seamark:light:colour": "green",
        "seamark:light:height": "4",
        "seamark:light:period": "3",
        "seamark:light:range": "5",
        "seamark:light:reference": "A 6043",
        "seamark:light:sequence": "0.5+(2.5)",
        "seamark:type": "light_minor",
        "source": "US NGA Pub. 114. 2011-05-26."
      }
    },
    {
      "type": "node",
      "id": 1561071665,
      "lat": 54.8211833,
      "lon": -5.7974333,
      "tags": {
        "seamark:information": "Visible 179° - 189°. Synchronized with front",
        "seamark:light:category": "upper",
        "seamark:light:character": "Oc",
        "seamark:light:colour": "white",
        "seamark:light:height": "14",
        "seamark:light:period": "4",
        "seamark:light:range": "12",
        "seamark:light:reference": "A 6033.1",
        "seamark:light:sequence": "3+(1)",
        "seamark:light:visibility": "part_obscured",
        "seamark:type": "light_minor",
        "source": "US NGA Pub. 114. 2011-05-26."
      }
    },
    {
      "type": "node",
      "id": 1561073848,
      "lat": 54.6164,
      "lon": -5.9007167,
      "tags": {
        "seamark:light:character": "Fl",
        "seamark:light:colour": "red",
        "seamark:light:height": "8",
        "seamark:light:period": "1.5",
        "seamark:light:range": "1",
        "seamark:light:reference": "A 6020.6",
        "seamark:light:sequence": "0.4+(1.1)",
        "seamark:type": "light_minor",
        "source": "US NGA Pub. 114. 2011-05-26."
      }
    },
    {
      "type": "node",
      "id": 1561076688,
      "lat": 54.7104574,
      "lon": -5.8063506,
      "tags": {
        "seamark:light:character": "Fl",
        "seamark:light:colour": "green",
        "seamark:light:height": "5",
        "seamark:light:period": "7.5",
        "seamark:light:range": "4",
        "seamark:light:reference": "A 5992",
        "seamark:light:sequence": "0.7+(6.8)",
        "seamark:type": "light_minor",
        "source": "US NGA Pub. 114. 2011-05-26."
      }
    },
    {
      "type": "node",
      "id": 1561077075,
      "lat": 54.0576333,
      "lon": -5.9882333,
      "tags": {
        "seamark:light:1:character": "Fl",
        "seamark:light:1:colour": "red",
        "seamark:light:1:height": "8",
        "seamark:light:1:period": "2",
        "seamark:light:1:range": "8",
        "seamark:light:1:sector_end": "313",
        "seamark:light:1:sector_start": "296",
        "seamark:light:1:sequence": "0.5+(1.5)",
        "seamark:light:2:character": "Fl",
        "seamark:light:2:colour": "white",
        "seamark:light:2:height": "8",
        "seamark:light:2:period": "2",
        "seamark:light:2:range": "8",
        "seamark:light:2:sector_end": "17",
        "seamark:light:2:sector_start": "313",
        "seamark:light:reference": "A 5952",
        "seamark:light:sequence": "0.5+(1.5)",
        "seamark:radio_station:category": "ais",
        "seamark:radio_station:mmsi": "992356010",
        "seamark:type": "light_minor",
        "source": "US NGA Pub. 114. 2011-05-26."
      }
    },
    {
      "type": "node",
      "id": 1561077217,
      "lat": 54.0993,
      "lon": -6.2587333,
      "tags": {
        "seamark:light:character": "Fl",
        "seamark:light:colour": "green",
        "seamark:light:height": "5",
        "seamark:light:period": "5",
        "seamark:light:range": "3",
        "seamark:light:reference": "A 5949",
        "seamark:light:sequence": "0.5+(4.5)",
        "seamark:type": "light_minor",
        "source": "US NGA Pub. 114. 2011-05-26."
      }
    },
    {
      "type": "node",
      "id": 1561078816,
      "lat": 53.6129703,
      "lon": -6.1783708,
      "tags": {
        "man_made": "lighthouse",
        "name": "Beacon",
        "seamark:light:1:character": "Fl",
        "seamark:light:1:colour": "green",
        "seamark:light:1:group": "3",
        "seamark:light:1:height": "12",
        "seamark:light:1:period": "20",
        "seamark:light:1:range": "10",
        "seamark:light:1:sector_end": "193",
        "seamark:light:1:sector_start": "159",
        "seamark:light:1:sequence": "1+(1),1+(1),1+(15)",
        "seamark:light:2:character": "Fl",
        "seamark:light:2:colour": "white",
        "seamark:light:2:group": "3",
        "seamark:light:2:height": "12",
        "seamark:light:2:period": "20",
        "seamark:light:2:range": "13",
        "seamark:light:2:sector_end": "288",
        "seamark:light:2:sector_start": "193",
        "seamark:light:2:sequence": "1+(1),1+(1),1+(15)",
        "seamark:light:3:character": "Fl",
        "seamark:light:3:colour": "red",
        "seamark:light:3:group": "3",
        "seamark:light:3:height": "12",
        "seamark:light:3:period": "20",
        "seamark:light:3:range": "10",
        "seamark:light:3:sector_end": "305",
        "seamark:light:3:sector_start": "288",
        "seamark:light:3:sequence": "1+(1),1+(1),1+(15)",
        "seamark:light:reference": "A 5908",
        "seamark:type": "light_minor",
        "source": "US NGA Pub. 114. 2011-05-26."
      }
    },
    {
      "type": "node",
      "id": 1561082724,
      "lat": 53.3457167,
      "lon": -6.2165167,
      "tags": {
        "seamark:light:character": "Fl",
        "seamark:light:colour": "white",
        "seamark:light:height": "12",
        "seamark:light:period": "2",
        "seamark:light:range": "10",
        "seamark:light:reference": "A 5894",
        "seamark:light:sequence": "0.2+(1.8)",
        "seamark:type": "light_minor",
        "source": "US NGA Pub. 114. 2011-05-26."
      }
    },
    {
      "type": "node",
      "id": 1561083450,
      "lat": 53.2958333,
      "lon": -6.1296,
      "tags": {
        "seamark:light:character": "Fl",
        "seamark:light:colour": "red",
        "seamark:light:height": "9",
        "seamark:light:period": "3",
        "seamark:light:range": "1",
        "seamark:light:reference": "A 5876",
        "seamark:light:sequence": "0.3+(2.7)",
        "seamark:type": "light_minor",
        "source": "US NGA Pub. 114. 2011-05-26."
      }
    },
    {
      "type": "node",
      "id": 1561083854,
      "lat": 52.7934833,
      "lon": -6.1368667,
      "tags": {
        "seamark:light:1:character": "Fl",
        "seamark:light:1:colour": "red",
        "seamark:light:1:height": "11",
        "seamark:light:1:period": "6",
        "seamark:light:1:range": "13",
        "seamark:light:1:sector_end": "223",
        "seamark:light:1:sector_start": "160",
        "seamark:light:1:sequence": "1+(5)",
        "seamark:light:2:character": "Fl",
        "seamark:light:2:colour": "white",
        "seamark:light:2:height": "11",
        "seamark:light:2:period": "6",
        "seamark:light:2:range": "13",
        "seamark:light:2:sector_end": "350",
        "seamark:light:2:sector_start": "223",
        "seamark:light:2:sequence": "1+(5)",
        "seamark:light:3:character": "Fl",
        "seamark:light:3:colour": "red",
        "seamark:light:3:height": "11",
        "seamark:light:3:period": "6",
        "seamark:light:3:range": "13",
        "seamark:light:3:sector_end": "40",
        "seamark:light:3:sector_start": "350",
        "seamark:light:3:sequence": "1+(5)",
        "seamark:light:reference": "A 5848",
        "seamark:type": "light_minor",
        "source": "US NGA Pub. 114. 2011-05-26."
      }
    },
    {
      "type": "node",
      "id": 1561083957,
      "lat": 52.25725,
      "lon": -6.3380667,
      "tags": {
        "seamark:light:1:character": "Oc",
        "seamark:light:1:colour": "green",
        "seamark:light:1:height": "15",
        "seamark:light:1:period": "5",
        "seamark:light:1:range": "10",
        "seamark:light:1:sector_end": "188",
        "seamark:light:1:sector_start": "98",
        "seamark:light:1:sequence": "1+(4)",
        "seamark:light:2:character": "Oc",
        "seamark:light:2:colour": "white",
        "seamark:light:2:height": "15",
        "seamark:light:2:period": "5",
        "seamark:light:2:range": "13",
        "seamark:light:2:sector_end": "208",
        "seamark:light:2:sector_start": "188",
        "seamark:light:2:sequence": "1+(4)",
        "seamark:light:3:character": "Oc",
        "seamark:light:3:colour": "red",
        "seamark:light:3:height": "15",
        "seamark:light:3:period": "5",
        "seamark:light:3:range": "10",
        "seamark:light:3:sector_end": "246",
        "seamark:light:3:sector_start": "208",
        "seamark:light:3:sequence": "1+(4)",
        "seamark:light:4:character": "Oc",
        "seamark:light:4:colour": "green",
        "seamark:light:4:height": "15",
        "seamark:light:4:period": "5",
        "seamark:light:4:range": "10",
        "seamark:light:4:sector_end": "283",
        "seamark:light:4:sector_start": "246",
        "seamark:light:4:sequence": "1+(4)",
        "seamark:light:5:character": "Oc",
        "seamark:light:5:colour": "white",
        "seamark:light:5:height": "15",
        "seamark:light:5:period": "5",
        "seamark:light:5:range": "13",
        "seamark:light:5:sector_end": "286",
        "seamark:light:5:sector_start": "283",
        "seamark:light:5:sequence": "1+(4)",
        "seamark:light:6:character": "Oc",
        "seamark:light:6:colour": "red",
        "seamark:light:6:height": "15",
        "seamark:light:6:period": "5",
        "seamark:light:6:range": "10",
        "seamark:light:6:sector_end": "320",
        "seamark:light:6:sector_start": "286",
        "seamark:light:6:sequence": "1+(4)",
        "seamark:light:reference": "A 5842",
        "seamark:type": "light_minor",
        "source": "US NGA Pub. 114. 2011-05-26."
      }
    },
    {
      "type": "node",
      "id": 1561084514,
      "lat": 52.25075,
      "lon": -7.0859833,
      "tags": {
        "seamark:light:1:character": "Fl",
        "seamark:light:1:colour": "red",
        "seamark:light:1:height": "6",
        "seamark:light:1:period": "6",
        "seamark:light:1:range": "2",
        "seamark:light:1:sector_end": "161",
        "seamark:light:1:sector_start": "111",
        "seamark:light:1:sequence": "0.3+(5.7)",
        "seamark:light:2:character": "Fl",
        "seamark:light:2:colour": "green",
        "seamark:light:2:height": "6",
        "seamark:light:2:period": "6",
        "seamark:light:2:range": "2",
        "seamark:light:2:sector_end": "234",
        "seamark:light:2:sector_start": "161",
        "seamark:light:2:sequence": "0.3+(5.7)",
        "seamark:light:3:character": "Fl",
        "seamark:light:3:colour": "white",
        "seamark:light:3:height": "6",
        "seamark:light:3:period": "6",
        "seamark:light:3:range": "2",
        "seamark:light:3:sector_end": "111",
        "seamark:light:3:sector_start": "234",
        "seamark:light:3:sequence": "0.3+(5.7)",
        "seamark:light:reference": "A 5826",
        "seamark:type": "light_minor",
        "source": "US NGA Pub. 114. 2011-05-26."
      }
    },
    {
      "type": "node",
      "id": 1561084555,
      "lat": 52.2732,
      "lon": -7.0152,
      "tags": {
        "seamark:light:1:category": "lower",
        "seamark:light:1:character": "Fl",
        "seamark:light:1:colour": "white",
        "seamark:light:1:height": "5",
        "seamark:light:1:period": "2.5",
        "seamark:light:1:range": "3",
        "seamark:light:1:sector_end": "20",
        "seamark:light:1:sector_start": "222",
        "seamark:light:1:sequence": "0.3+(2.2)",
        "seamark:light:2:category": "lower",
        "seamark:light:2:character": "Fl",
        "seamark:light:2:colour": "red",
        "seamark:light:2:height": "5",
        "seamark:light:2:period": "2.5",
        "seamark:light:2:range": "3",
        "seamark:light:2:sector_end": "57",
        "seamark:light:2:sector_start": "20",
        "seamark:light:2:sequence": "0.3+(2.2)",
        "seamark:light:3:category": "lower",
        "seamark:light:3:character": "Fl",
        "seamark:light:3:colour": "white",
        "seamark:light:3:height": "5",
        "seamark:light:3:period": "2.5",
        "seamark:light:3:range": "3",
        "seamark:light:3:sector_end": "107",
        "seamark:light:3:sector_start": "57",
        "seamark:light:3:sequence": "0.3+(2.2)",
        "seamark:light:reference": "A 5814",
        "seamark:type": "light_minor",
        "source": "US NGA Pub. 114. 2011-05-26."
      }
    },
    {
      "type": "node",
      "id": 1561084556,
      "lat": 52.2749767,
      "lon": -6.9820786,
      "tags": {
        "seamark:light:character": "Fl",
        "seamark:light:colour": "white",
        "seamark:light:period": "5",
        "seamark:light:reference": "A 5812",
        "seamark:light:sequence": "0.5+(4.5)",
        "seamark:type": "light_minor",
        "source": "US NGA Pub. 114. 2011-05-26."
      }
    },
    {
      "type": "node",
      "id": 1561084754,
      "lat": 52.2204667,
      "lon": -6.9374333,
      "tags": {
        "seamark:light:1:character": "Oc",
        "seamark:light:1:colour": "green",
        "seamark:light:1:height": "13",
        "seamark:light:1:period": "4",
        "seamark:light:1:range": "8",
        "seamark:light:1:sector_end": "1.7",
        "seamark:light:1:sector_start": "358",
        "seamark:light:1:sequence": "3+(1)",
        "seamark:light:2:character": "Oc",
        "seamark:light:2:colour": "white",
        "seamark:light:2:height": "13",
        "seamark:light:2:period": "4",
        "seamark:light:2:range": "11",
        "seamark:light:2:sector_end": "2.2",
        "seamark:light:2:sector_start": "1.7",
        "seamark:light:2:sequence": "3+(1)",
        "seamark:light:3:character": "Oc",
        "seamark:light:3:colour": "red",
        "seamark:light:3:height": "13",
        "seamark:light:3:period": "4",
        "seamark:light:3:range": "8",
        "seamark:light:3:sector_end": "6",
        "seamark:light:3:sector_start": "2.2",
        "seamark:light:3:sequence": "3+(1)",
        "seamark:light:reference": "A 5806",
        "seamark:type": "light_minor",
        "source": "US NGA Pub. 114. 2011-05-26."
      }
    },
    {
      "type": "node",
      "id": 1561086947,
      "lat": 51.8091575,
      "lon": -8.2534758,
      "tags": {
        "seamark:light:category": "lower",
        "seamark:light:character": "Oc",
        "seamark:light:colour": "red",
        "seamark:light:height": "11",
        "seamark:light:period": "5",
        "seamark:light:range": "5",
        "seamark:light:reference": "A 5722",
        "seamark:light:sequence": "4.5+(0.5)",
        "seamark:type": "light_minor",
        "source": "US NGA Pub. 114. 2011-05-26."
      }
    },
    {
      "type": "node",
      "id": 1561087564,
      "lat": 51.5163801,
      "lon": -9.174912,
      "tags": {
        "seamark:light:1:character": "Fl",
        "seamark:light:1:colour": "green",
        "seamark:light:1:height": "9",
        "seamark:light:1:period": "10",
        "seamark:light:1:range": "3",
        "seamark:light:1:sector_end": "338",
        "seamark:light:1:sector_start": "250",
        "seamark:light:2:character": "Fl",
        "seamark:light:2:colour": "white",
        "seamark:light:2:height": "9",
        "seamark:light:2:period": "10",
        "seamark:light:2:range": "5",
        "seamark:light:2:sector_end": "1",
        "seamark:light:2:sector_start": "338",
        "seamark:light:2:sequence": "0.5+(9.5)",
        "seamark:light:3:character": "Fl",
        "seamark:light:3:colour": "red",
        "seamark:light:3:height": "9",
        "seamark:light:3:period": "10",
        "seamark:light:3:range": "3",
        "seamark:light:3:sector_end": "60",
        "seamark:light:3:sector_start": "1",
        "seamark:light:3:sequence": "0.5+(9.5)",
        "seamark:light:reference": "A 5707",
        "seamark:name": "Reen Point",
        "seamark:type": "light_minor",
        "source": "US NGA Pub. 114. 2011-05-26."
      }
    },
    {
      "type": "node",
      "id": 3978768955,
      "lat": 54.0985581,
      "lon": -10.0605093,
      "tags": {
        "man_made": "lighthouse",
        "name": "Blacksod Lighthouse",
        "seamark:light:1:character": "Fl",
        "seamark:light:1:colour": "red",
        "seamark:light:1:group": "2",
        "seamark:light:1:height": "13",
        "seamark:light:1:period": "7.5",
        "seamark:light:1:range": "9",
        "seamark:light:1:sector_end": "210",
        "seamark:light:1:sector_start": "189",
        "seamark:light:1:sequence": "0.5+(1),0.5+(5.5)",
        "seamark:light:2:character": "Fl",
        "seamark:light:2:colour": "white",
        "seamark:light:2:group": "2",
        "seamark:light:2:height": "13",
        "seamark:light:2:period": "7.5",
        "seamark:light:2:range": "12",
        "seamark:light:2:sector_end": "18",
        "seamark:light:2:sector_start": "210",
        "seamark:light:2:sequence": "0.5+(1),0.5+(5.5)",
        "seamark:light:reference": "A 6272",
        "seamark:name": "Blacksod",
        "seamark:type": "light_minor",
        "source": "Commissioners of Irish Lights",
        "wikidata": "Q3778643",
        "wikipedia": "en:Blacksod Lighthouse"
      }
    },
    {
      "type": "way",
      "id": 87606863,
      "nodes": [
        1019072879,
        1019072620,
        1019073045,
        1019072952,
        1019072866,
        1019072816,
        1019072744,
        1019072671,
        1019072813,
        1019072735,
        1019072663,
        1019073083,
        1019072992,
        1019072900,
        1019072839,
        1019072780,
        1019072886,
        1019072836,
        1019072776,
        1019072879
      ],
      "tags": {
        "building": "yes",
        "man_made": "lighthouse",
        "name": "Hook Head Lighthouse",
        "seamark:fog_signal:category": "horn",
        "seamark:landmark:height": "35",
        "seamark:light:character": "Fl",
        "seamark:light:colour": "white",
        "seamark:light:height": "46",
        "seamark:light:period": "3",
        "seamark:light:range": "23",
        "seamark:light:reference": "A 5798",
        "seamark:light:sequence": "0.1+(2.9)",
        "seamark:name": "Hook Head Lighthouse",
        "seamark:radar_transponder:category": "racon",
        "seamark:radar_transponder:group": "K",
        "seamark:radar_transponder:period": "120",
        "seamark:radio_station:category": "ais",
        "seamark:radio_station:mmsi": "992501079",
        "seamark:type": "landmark",
        "source": "Commissioners of Irish Lights",
        "wikidata": "Q5897891",
        "wikipedia": "en:Hook Lighthouse"
      }
    },
    {
      "type": "way",
      "id": 217216230,
      "nodes": [
        2265077687,
        2515959898,
        2265077701,
        2515959917,
        2265077703,
        2515959912,
        2265077699,
        2515959919,
        2265077685,
        2515959901,
        2265077670,
        2515959900,
        2265077664,
        2515959899,
        2265077668,
        2515959916,
        2265077674,
        2515959918,
        2265077687
      ],
      "tags": {
        "building": "yes",
        "man_made": "lighthouse",
        "name": "Wicklow Head Lighthouse",
        "operator": "Commissioners of Irish Lights",
        "seamark:light:character": "Fl",
        "seamark:light:colour": "white",
        "seamark:light:group": "3",
        "seamark:light:height": "37",
        "seamark:light:period": "15",
        "seamark:light:range": "23",
        "seamark:light:reference": "A 5850",
        "seamark:light:sequence": "0.2+(2.3)+0.2+(2.3)+0.2+(9.8)",
        "seamark:name": "Wicklow Head",
        "seamark:radio_station:category": "ais",
        "seamark:radio_station:mmsi": "992501031",
        "seamark:type": "light_major",
        "source": "Commissioners of Irish Lights",
        "wikidata": "Q28333612"
      }
    },
    {
      "type": "way",
      "id": 244344138,
      "nodes": [
        2516718647,
        2516718644,
        2516718643,
        2516718645,
        2516718646,
        2516718648,
        2516718651,
        2516718654,
        2516718656,
        2516718658,
        2516718660,
        2516718659,
        2516718657,
        2516718655,
        2516718652,
        2516718649,
        2516718647
      ],
      "tags": {
        "building": "lighthouse",
        "man_made": "lighthouse",
        "name": "Poolbeg Lighthouse",
        "seamark:fog_signal:category": "horn",
        "seamark:fog_signal:group": "2",
        "seamark:fog_signal:period": "60",
        "seamark:light:character": "Fl",
        "seamark:light:colour": "red",
        "seamark:light:height": "20",
        "seamark:light:period": "4",
        "seamark:light:range": "10",
        "seamark:light:reference": "A 5882",
        "seamark:light:sequence": "1+(3)",
        "seamark:name": "Poolbeg",
        "seamark:type": "light_minor",
        "wikidata": "Q7228600",
        "wikipedia": "en:Poolbeg Lighthouse"
      }
    },
    {
      "type": "way",
      "id": 244371670,
      "nodes": [
        2516965913,
        2516965915,
        2516965917,
        2516965919,
        2516965918,
        2516965916,
        2516965914,
        2516965911,
        2516965909,
        2516965907,
        2516965903,
        2516965901,
        2516965900,
        2516965899,
        2516965902,
        2516965904,
        2516965905,
        2516965906,
        2516965908,
        2516965910,
        2516965912,
        2516965913
      ],
      "tags": {
        "building": "lighthouse",
        "man_made": "lighthouse",
        "name": "Baily Lighthouse",
        "seamark:light:character": "Fl",
        "seamark:light:colour": "white",
        "seamark:light:height": "41",
        "seamark:light:period": "15",
        "seamark:light:range": "26",
        "seamark:light:reference": "A 5898",
        "seamark:light:sequence": "0.8+(14.2)",
        "seamark:name": "Baily",
        "seamark:radio_station:category": "ais",
        "seamark:radio_station:mmsi": "992501010",
        "seamark:type": "light_major",
        "source": "Commissioners of Irish Lights",
        "wikidata": "Q4848496"
      }
    },
    {
      "type": "way",
      "id": 279632856,
      "nodes": [
        2838481423,
        2838481178,
        2838481460,
        2838481448,
        2838481164,
        2838475772,
        2838481199,
        2838481437,
        2838481450,
        2838481449,
        2838481415,
        2838481186,
        2838481144,
        2838475761,
        2838481149,
        2838481185,
        2838481117,
        2838475763,
        2838481445,
        2838481423
      ],
      "tags": {
        "building": "yes",
        "historic": "monument",
        "name": "Spire of Loyd",
        "seamark:light:colour": "white",
        "seamark:light:range": "15",
        "seamark:light:sequence": "1+(1.5)+1+(1.5)+1+(6)",
        "wikipedia": "en:Spire of Lloyd"
      }
    },
    {
      "type": "way",
      "id": 285381185,
      "nodes": [
        7455489101,
        7455489102,
        7455489103,
        7455489104,
        7455489105,
        2890674502,
        2890674505,
        2890674501,
        2890658797,
        7455489096,
        7455489097,
        7455489098,
        7455489099,
        7455489100,
        2890658792,
        2890658786,
        2890658788,
        2890658791,
        2890674504,
        7455489101
      ],
      "tags": {
        "building": "yes",
        "building:levels": "5",
        "man_made": "lighthouse",
        "name": "Loop Head Lighthouse",
        "seamark:light:1:character": "Fl",
        "seamark:light:1:colour": "white",
        "seamark:light:1:group": "4",
        "seamark:light:1:height": "84",
        "seamark:light:1:period": "20",
        "seamark:light:1:range": "23",
        "seamark:light:1:sector_end": "218",
        "seamark:light:1:sector_start": "280",
        "seamark:light:1:sequence": "0.1+(2.4),0.1+(2.4),0.1+(2.4),0.1+(12.4)",
        "seamark:light:reference": "A 6338",
        "seamark:name": "Loop Head",
        "seamark:radio_station:category": "ais",
        "seamark:radio_station:mmsi": "992501161",
        "seamark:source": "https://map.openseamap.org/ (ais)",
        "seamark:type": "light_major",
        "source": "Commissioners of Irish Lights",
        "wikidata": "Q5856377"
      }
    },
    {
      "type": "way",
      "id": 311125744,
      "nodes": [
        322520678,
        3166797048,
        3166797044,
        3166797043,
        3166797047,
        3166797046,
        322520678
      ],
      "tags": {
        "man_made": "lighthouse",
        "name": "Corlis Point Front Leading Light",
        "seamark:information": "High intensity light by day. Nominal Range: By Day 7 nautical miles, By Night 10 nautical miles",
        "seamark:light:category": "front",
        "seamark:light:character": "Oc",
        "seamark:light:colour": "white",
        "seamark:light:exhibition": "24h",
        "seamark:light:height": "9",
        "seamark:light:period": "5",
        "seamark:light:range": "10",
        "seamark:light:reference": "A 6340.5",
        "seamark:light:sequence": "4+(1)",
        "seamark:name": "Corlis Point Front",
        "seamark:radio_station:category": "ais",
        "seamark:radio_station:mmsi": "992501156",
        "seamark:source": "US Pub.114(2020)",
        "seamark:type": "light_minor",
        "source": "Commissioners of Irish Lights"
      }
    },
    {
      "type": "way",
      "id": 431072892,
      "nodes": [
        4303212403,
        4303212426,
        4303212367,
        1561070517,
        4303212661,
        4303212567,
        4303212363,
        4303212707,
        4303212643,
        4303212061,
        4303212674,
        4303212634,
        4303212399,
        4303212326,
        4303212438,
        4303212493,
        4303212396,
        4303212498,
        4303212304,
        4303212403
      ],
      "tags": {
        "building": "yes",
        "man_made": "lighthouse",
        "seamark:light:1:character": "Fl",
        "seamark:light:1:colour": "white",
        "seamark:light:1:height": "9",
        "seamark:light:1:period": "1.5",
        "seamark:light:1:range": "10",
        "seamark:light:1:sector_end": "61",
        "seamark:light:1:sector_start": "232",
        "seamark:light:1:sequence": "0.2+(1.3)",
        "seamark:light:reference": "A 6088",
        "seamark:name": "Warren Point",
        "seamark:type": "light_minor",
        "source": "US NGA Pub. 114. 2011-05-26.",
        "wikidata": "Q55046051"
      }
    },
    {
      "type": "way",
      "id": 553550351,
      "nodes": [
        5343053134,
        5343053135,
        5343053136,
        5343053137,
        5343053138,
        5343053139,
        5343053123,
        5343053124,
        5343053125,
        5343053129,
        5343053130,
        5343053142,
        5343053145,
        5343053131,
        5343053132,
        5343053133,
        5343053126,
        5343053127,
        5343053128,
        5343053134
      ],
      "tags": {
        "building": "yes",
        "man_made": "lighthouse",
        "name": "Galley Head Lighthouse",
        "seamark:light:1:character": "Fl",
        "seamark:light:1:colour": "white",
        "seamark:light:1:group": "5",
        "seamark:light:1:height": "53",
        "seamark:light:1:period": "20",
        "seamark:light:1:range": "23",
        "seamark:light:1:sector_end": "065",
        "seamark:light:1:sector_start": "256",
        "seamark:light:1:sequence": "0.1+(2.4)+0.1+(2.4)+0.1+(2.4)+0.1+(2.4)+0.1+(9.9)",
        "seamark:light:1:visibility": "part_obscured",
        "seamark:name": "Galley Head",
        "seamark:source": "US Pub.114(2020)",
        "seamark:type": "light_major",
        "source": "Commissioners of Irish Lights",
        "wikidata": "Q5519028",
        "wikipedia": "en:Galley Head Lighthouse"
      }
    },
    {
      "type": "way",
      "id": 557364146,
      "nodes": [
        5375475863,
        5375475843,
        5375475875,
        5375475873,
        5375475860,
        5375475874,
        5375475848,
        5375475876,
        5375475852,
        5375475868,
        5375475847,
        5375475879,
        5375475883,
        5375475871,
        5375475882,
        5375475829,
        5375475884,
        5375475877,
        5375475863
      ],
      "tags": {
        "building": "yes",
        "man_made": "lighthouse",
        "name": "Blackhead Co. Antrim Lighthouse",
        "operator": "Commissioners of Irish Lights",
        "seamark:light:character": "Fl",
        "seamark:light:colour": "white",
        "seamark:light:height": "45",
        "seamark:light:period": "3",
        "seamark:light:range": "27",
        "seamark:light:reference": "A 6028",
        "seamark:light:sequence": "0.2+(2.8)",
        "seamark:name": "Black Head",
        "seamark:radio_station:category": "ais",
        "seamark:radio_station:mmsi": "992351002",
        "seamark:type": "light_major",
        "source": "Bing;Commissioners of Irish Lights",
        "website": "https://www.irishlights.ie/tourism/our-lighthouses/black-head-(antrim).aspx"
      }
    },
    {
      "type": "way",
      "id": 689684246,
      "nodes": [
        322520616,
        6470276713,
        6470276714,
        6470276715,
        6470276716,
        6470276717,
        6470276718,
        6470276719,
        6470276720,
        6470276721,
        6470276704,
        6470276707,
        6470276708,
        6470276709,
        6470276710,
        6470276711,
        6470276712,
        6470276705,
        6470276706,
        322520616
      ],
      "tags": {
        "building": "yes",
        "height": "30",
        "man_made": "lighthouse",
        "name": "Old Head of Kinsale Lighthouse",
        "operator": "Commissioners of Irish Lights",
        "seamark:fog_signal:category": "horn",
        "seamark:information": "Fl (2) W 10s. Exhibited by day in conditons of poor visibility",
        "seamark:landmark:category": "tower",
        "seamark:landmark:colour": "black;white;black;white",
        "seamark:landmark:colour_pattern": "horizontal",
        "seamark:landmark:height": "30",
        "seamark:light:character": "Fl",
        "seamark:light:colour": "white",
        "seamark:light:group": "2",
        "seamark:light:height": "72",
        "seamark:light:period": "10",
        "seamark:light:range": "20",
        "seamark:light:reference": "A 5710",
        "seamark:light:sequence": "0.1+(1.6)+0.1+(8.2)",
        "seamark:name": "Old Head of Kinsale",
        "seamark:radio_station:category": "ais",
        "seamark:radio_station:mmsi": "992501107",
        "seamark:type": "landmark",
        "source": "Commissioners of Irish Lights",
        "wikidata": "Q5856448"
      }
    },
    {
      "type": "node",
      "id": 5343053123,
      "lat": 51.5298016,
      "lon": -8.952489
    },
    {
      "type": "node",
      "id": 5343053124,
      "lat": 51.5297982,
      "lon": -8.9525036
    },
    {
      "type": "node",
      "id": 5343053125,
      "lat": 51.5297922,
      "lon": -8.9525157
    },
    {
      "type": "node",
      "id": 5343053126,
      "lat": 51.5297428,
      "lon": -8.9524667
    },
    {
      "type": "node",
      "id": 5343053127,
      "lat": 51.5297472,
      "lon": -8.9524518
    },
    {
      "type": "node",
      "id": 5343053128,
      "lat": 51.5297544,
      "lon": -8.9524401
    },
    {
      "type": "node",
      "id": 5343053129,
      "lat": 51.529784,
      "lon": -8.9525242
    },
    {
      "type": "node",
      "id": 5343053130,
      "lat": 51.5297747,
      "lon": -8.952528
    },
    {
      "type": "node",
      "id": 5343053131,
      "lat": 51.5297488,
      "lon": -8.9525108
    },
    {
      "type": "node",
      "id": 5343053132,
      "lat": 51.5297438,
      "lon": -8.9524974
    },
    {
      "type": "node",
      "id": 5343053133,
      "lat": 51.5297418,
      "lon": -8.9524821
    },
    {
      "type": "node",
      "id": 5343053134,
      "lat": 51.5297636,
      "lon": -8.952433
    },
    {
      "type": "node",
      "id": 5343053135,
      "lat": 51.5297738,
      "lon": -8.9524312
    },
    {
      "type": "node",
      "id": 5343053136,
      "lat": 51.5297838,
      "lon": -8.952435
    },
    {
      "type": "node",
      "id": 5343053137,
      "lat": 51.5297924,
      "lon": -8.9524439
    },
    {
      "type": "node",
      "id": 5343053138,
      "lat": 51.5297987,
      "lon": -8.9524569
    },
    {
      "type": "node",
      "id": 5343053139,
      "lat": 51.5298018,
      "lon": -8.9524725
    },
    {
      "type": "node",
      "id": 5343053142,
      "lat": 51.529765,
      "lon": -8.9525269
    },
    {
      "type": "node",
      "id": 5343053145,
      "lat": 51.5297561,
      "lon": -8.952521
    },
    {
      "type": "node",
      "id": 322520616,
      "lat": 51.604637,
      "lon": -8.5333992
    },
    {
      "type": "node",
      "id": 6470276704,
      "lat": 51.6046808,
      "lon": -8.5334637
    },
    {
      "type": "node",
      "id": 6470276705,
      "lat": 51.6046547,
      "lon": -8.5333866
    },
    {
      "type": "node",
      "id": 6470276706,
      "lat": 51.6046452,
      "lon": -8.5333906
    },
    {
      "type": "node",
      "id": 6470276707,
      "lat": 51.6046854,
      "lon": -8.5334498
    },
    {
      "type": "node",
      "id": 6470276708,
      "lat": 51.604687,
      "lon": -8.5334342
    },
    {
      "type": "node",
      "id": 6470276709,
      "lat": 51.6046854,
      "lon": -8.5334187
    },
    {
      "type": "node",
      "id": 6470276710,
      "lat": 51.6046807,
      "lon": -8.5334048
    },
    {
      "type": "node",
      "id": 6470276711,
      "lat": 51.6046734,
      "lon": -8.5333942
    },
    {
      "type": "node",
      "id": 6470276712,
      "lat": 51.6046645,
      "lon": -8.5333879
    },
    {
      "type": "node",
      "id": 6470276713,
      "lat": 51.604631,
      "lon": -8.5334117
    },
    {
      "type": "node",
      "id": 6470276714,
      "lat": 51.6046279,
      "lon": -8.5334267
    },
    {
      "type": "node",
      "id": 6470276715,
      "lat": 51.6046279,
      "lon": -8.5334425
    },
    {
      "type": "node",
      "id": 6470276716,
      "lat": 51.6046311,
      "lon": -8.5334574
    },
    {
      "type": "node",
      "id": 6470276717,
      "lat": 51.6046372,
      "lon": -8.5334698
    },
    {
      "type": "node",
      "id": 6470276718,
      "lat": 51.6046454,
      "lon": -8.5334784
    },
    {
      "type": "node",
      "id": 6470276719,
      "lat": 51.6046549,
      "lon": -8.5334822
    },
    {
      "type": "node",
      "id": 6470276720,
      "lat": 51.6046647,
      "lon": -8.5334808
    },
    {
      "type": "node",
      "id": 6470276721,
      "lat": 51.6046736,
      "lon": -8.5334745
    },
    {
      "type": "node",
      "id": 2890658786,
      "lat": 52.5608641,
      "lon": -9.9321504
    },
    {
      "type": "node",
      "id": 2890658788,
      "lat": 52.5608596,
      "lon": -9.9321676
    },
    {
      "type": "node",
      "id": 2890658791,
      "lat": 52.5608589,
      "lon": -9.9321863
    },
    {
      "type": "node",
      "id": 2890658792,
      "lat": 52.5608719,
      "lon": -9.9321368
    },
    {
      "type": "node",
      "id": 2890658797,
      "lat": 52.5609232,
      "lon": -9.9321629
    },
    {
      "type": "node",
      "id": 2890674501,
      "lat": 52.560925,
      "lon": -9.9321798
    },
    {
      "type": "node",
      "id": 2890674502,
      "lat": 52.5609188,
      "lon": -9.932212
    },
    {
      "type": "node",
      "id": 2890674504,
      "lat": 52.560862,
      "lon": -9.9322042
    },
    {
      "type": "node",
      "id": 2890674505,
      "lat": 52.5609234,
      "lon": -9.9321967
    },
    {
      "type": "node",
      "id": 7455489096,
      "lat": 52.5609184,
      "lon": -9.9321478
    },
    {
      "type": "node",
      "id": 7455489097,
      "lat": 52.560911,
      "lon": -9.9321358
    },
    {
      "type": "node",
      "id": 7455489098,
      "lat": 52.5609016,
      "lon": -9.9321283
    },
    {
      "type": "node",
      "id": 7455489099,
      "lat": 52.5608913,
      "lon": -9.9321259
    },
    {
      "type": "node",
      "id": 7455489100,
      "lat": 52.5608811,
      "lon": -9.9321288
    },
    {
      "type": "node",
      "id": 7455489101,
      "lat": 52.5608687,
      "lon": -9.9322194
    },
    {
      "type": "node",
      "id": 7455489102,
      "lat": 52.5608781,
      "lon": -9.93223
    },
    {
      "type": "node",
      "id": 7455489103,
      "lat": 52.5608891,
      "lon": -9.9322347
    },
    {
      "type": "node",
      "id": 7455489104,
      "lat": 52.5609004,
      "lon": -9.932233
    },
    {
      "type": "node",
      "id": 7455489105,
      "lat": 52.5609107,
      "lon": -9.9322252
    },
    {
      "type": "node",
      "id": 322520678,
      "lat": 52.6179234,
      "lon": -9.6054721
    },
    {
      "type": "node",
      "id": 3166797043,
      "lat": 52.6178729,
      "lon": -9.6054333
    },
    {
      "type": "node",
      "id": 3166797044,
      "lat": 52.6178737,
      "lon": -9.6053859
    },
    {
      "type": "node",
      "id": 3166797046,
      "lat": 52.6178916,
      "lon": -9.6054706
    },
    {
      "type": "node",
      "id": 3166797047,
      "lat": 52.6178923,
      "lon": -9.6054343
    },
    {
      "type": "node",
      "id": 3166797048,
      "lat": 52.6179249,
      "lon": -9.6053884
    },
    {
      "type": "node",
      "id": 1019072620,
      "lat": 52.1237896,
      "lon": -6.9295444
    },
    {
      "type": "node",
      "id": 1019072663,
      "lat": 52.1237448,
      "lon": -6.9293684
    },
    {
      "type": "node",
      "id": 1019072671,
      "lat": 52.1237997,
      "lon": -6.9293852
    },
    {
      "type": "node",
      "id": 1019072735,
      "lat": 52.1237639,
      "lon": -6.9293639
    },
    {
      "type": "node",
      "id": 1019072744,
      "lat": 52.1238125,
      "lon": -6.9294088
    },
    {
      "type": "node",
      "id": 1019072776,
      "lat": 52.1237519,
      "lon": -6.9295534
    },
    {
      "type": "node",
      "id": 1019072780,
      "lat": 52.1237085,
      "lon": -6.929496
    },
    {
      "type": "node",
      "id": 1019072813,
      "lat": 52.1237829,
      "lon": -6.9293697
    },
    {
      "type": "node",
      "id": 1019072816,
      "lat": 52.1238199,
      "lon": -6.9294379
    },
    {
      "type": "node",
      "id": 1019072836,
      "lat": 52.1237338,
      "lon": -6.9295425
    },
    {
      "type": "node",
      "id": 1019072839,
      "lat": 52.1237042,
      "lon": -6.9294654
    },
    {
      "type": "node",
      "id": 1019072866,
      "lat": 52.1238211,
      "lon": -6.9294693
    },
    {
      "type": "node",
      "id": 1019072879,
      "lat": 52.1237712,
      "lon": -6.929554
    },
    {
      "type": "node",
      "id": 1019072886,
      "lat": 52.1237188,
      "lon": -6.9295227
    },
    {
      "type": "node",
      "id": 1019072900,
      "lat": 52.1237062,
      "lon": -6.9294341
    },
    {
      "type": "node",
      "id": 1019072952,
      "lat": 52.123816,
      "lon": -6.9294996
    },
    {
      "type": "node",
      "id": 1019072992,
      "lat": 52.1237143,
      "lon": -6.9294056
    },
    {
      "type": "node",
      "id": 1019073045,
      "lat": 52.1238051,
      "lon": -6.9295256
    },
    {
      "type": "node",
      "id": 1019073083,
      "lat": 52.1237276,
      "lon": -6.9293828
    },
    {
      "type": "node",
      "id": 2838475761,
      "lat": 53.7329867,
      "lon": -6.9055628
    },
    {
      "type": "node",
      "id": 2838475763,
      "lat": 53.7330197,
      "lon": -6.9056049
    },
    {
      "type": "node",
      "id": 2838475772,
      "lat": 53.7330406,
      "lon": -6.905519
    },
    {
      "type": "node",
      "id": 2838481117,
      "lat": 53.733009,
      "lon": -6.9056033
    },
    {
      "type": "node",
      "id": 2838481144,
      "lat": 53.7329866,
      "lon": -6.9055447
    },
    {
      "type": "node",
      "id": 2838481149,
      "lat": 53.7329891,
      "lon": -6.9055751
    },
    {
      "type": "node",
      "id": 2838481164,
      "lat": 53.733046,
      "lon": -6.9055347
    },
    {
      "type": "node",
      "id": 2838481178,
      "lat": 53.7330424,
      "lon": -6.9055827
    },
    {
      "type": "node",
      "id": 2838481185,
      "lat": 53.7329953,
      "lon": -6.9055899
    },
    {
      "type": "node",
      "id": 2838481186,
      "lat": 53.7329893,
      "lon": -6.90553
    },
    {
      "type": "node",
      "id": 2838481199,
      "lat": 53.733031,
      "lon": -6.9055063
    },
    {
      "type": "node",
      "id": 2838481415,
      "lat": 53.7329956,
      "lon": -6.9055153
    },
    {
      "type": "node",
      "id": 2838481423,
      "lat": 53.7330349,
      "lon": -6.9055955
    },
    {
      "type": "node",
      "id": 2838481437,
      "lat": 53.7330208,
      "lon": -6.905501
    },
    {
      "type": "node",
      "id": 2838481445,
      "lat": 53.73303,
      "lon": -6.9056003
    },
    {
      "type": "node",
      "id": 2838481448,
      "lat": 53.7330479,
      "lon": -6.9055506
    },
    {
      "type": "node",
      "id": 2838481449,
      "lat": 53.7330034,
      "lon": -6.9055061
    },
    {
      "type": "node",
      "id": 2838481450,
      "lat": 53.7330137,
      "lon": -6.905501
    },
    {
      "type": "node",
      "id": 2838481460,
      "lat": 53.7330465,
      "lon": -6.9055685
    },
    {
      "type": "node",
      "id": 1561070517,
      "lat": 55.2097477,
      "lon": -6.9518416
    },
    {
      "type": "node",
      "id": 4303212061,
      "lat": 55.2097282,
      "lon": -6.9518116
    },
    {
      "type": "node",
      "id": 4303212304,
      "lat": 55.209759,
      "lon": -6.9518149
    },
    {
      "type": "node",
      "id": 4303212326,
      "lat": 55.2097419,
      "lon": -6.9517885
    },
    {
      "type": "node",
      "id": 4303212363,
      "lat": 55.2097333,
      "lon": -6.9518358
    },
    {
      "type": "node",
      "id": 4303212367,
      "lat": 55.2097523,
      "lon": -6.9518378
    },
    {
      "type": "node",
      "id": 4303212396,
      "lat": 55.2097555,
      "lon": -6.9517983
    },
    {
      "type": "node",
      "id": 4303212399,
      "lat": 55.209737,
      "lon": -6.9517909
    },
    {
      "type": "node",
      "id": 4303212403,
      "lat": 55.2097583,
      "lon": -6.9518237
    },
    {
      "type": "node",
      "id": 4303212426,
      "lat": 55.2097559,
      "lon": -6.9518316
    },
    {
      "type": "node",
      "id": 4303212438,
      "lat": 55.209747,
      "lon": -6.9517891
    },
    {
      "type": "node",
      "id": 4303212493,
      "lat": 55.2097517,
      "lon": -6.9517925
    },
    {
      "type": "node",
      "id": 4303212498,
      "lat": 55.209758,
      "lon": -6.9518061
    },
    {
      "type": "node",
      "id": 4303212567,
      "lat": 55.2097376,
      "lon": -6.9518405
    },
    {
      "type": "node",
      "id": 4303212634,
      "lat": 55.2097328,
      "lon": -6.9517959
    },
    {
      "type": "node",
      "id": 4303212643,
      "lat": 55.2097284,
      "lon": -6.9518205
    },
    {
      "type": "node",
      "id": 4303212661,
      "lat": 55.2097426,
      "lon": -6.9518425
    },
    {
      "type": "node",
      "id": 4303212674,
      "lat": 55.2097298,
      "lon": -6.9518031
    },
    {
      "type": "node",
      "id": 4303212707,
      "lat": 55.2097301,
      "lon": -6.9518289
    },
    {
      "type": "node",
      "id": 2265077664,
      "lat": 52.9654166,
      "lon": -5.9981185
    },
    {
      "type": "node",
      "id": 2265077668,
      "lat": 52.9654171,
      "lon": -5.9981464
    },
    {
      "type": "node",
      "id": 2265077670,
      "lat": 52.9654277,
      "lon": -5.9980941
    },
    {
      "type": "node",
      "id": 2265077674,
      "lat": 52.9654274,
      "lon": -5.9981678
    },
    {
      "type": "node",
      "id": 2265077685,
      "lat": 52.9654449,
      "lon": -5.9980874
    },
    {
      "type": "node",
      "id": 2265077687,
      "lat": 52.9654473,
      "lon": -5.9981742
    },
    {
      "type": "node",
      "id": 2265077699,
      "lat": 52.9654599,
      "lon": -5.9980987
    },
    {
      "type": "node",
      "id": 2265077701,
      "lat": 52.9654646,
      "lon": -5.9981539
    },
    {
      "type": "node",
      "id": 2265077703,
      "lat": 52.965468,
      "lon": -5.9981232
    },
    {
      "type": "node",
      "id": 2515959898,
      "lat": 52.9654559,
      "lon": -5.9981686
    },
    {
      "type": "node",
      "id": 2515959899,
      "lat": 52.9654155,
      "lon": -5.9981337
    },
    {
      "type": "node",
      "id": 2515959900,
      "lat": 52.9654209,
      "lon": -5.9981044
    },
    {
      "type": "node",
      "id": 2515959901,
      "lat": 52.9654357,
      "lon": -5.9980884
    },
    {
      "type": "node",
      "id": 2515959912,
      "lat": 52.9654648,
      "lon": -5.9981089
    },
    {
      "type": "node",
      "id": 2515959916,
      "lat": 52.9654218,
      "lon": -5.9981596
    },
    {
      "type": "node",
      "id": 2515959917,
      "lat": 52.965468,
      "lon": -5.9981397
    },
    {
      "type": "node",
      "id": 2515959918,
      "lat": 52.9654358,
      "lon": -5.9981739
    },
    {
      "type": "node",
      "id": 2515959919,
      "lat": 52.9654521,
      "lon": -5.9980905
    },
    {
      "type": "node",
      "id": 2516718643,
      "lat": 53.3420641,
      "lon": -6.1513695
    },
    {
      "type": "node",
      "id": 2516718644,
      "lat": 53.342066,
      "lon": -6.1513476
    },
    {
      "type": "node",
      "id": 2516718645,
      "lat": 53.3420673,
      "lon": -6.1513954
    },
    {
      "type": "node",
      "id": 2516718646,
      "lat": 53.3420748,
      "lon": -6.1514152
    },
    {
      "type": "node",
      "id": 2516718647,
      "lat": 53.3420775,
      "lon": -6.1513171
    },
    {
      "type": "node",
      "id": 2516718648,
      "lat": 53.3420887,
      "lon": -6.1514322
    },
    {
      "type": "node",
      "id": 2516718649,
      "lat": 53.3420941,
      "lon": -6.1513013
    },
    {
      "type": "node",
      "id": 2516718651,
      "lat": 53.3421051,
      "lon": -6.1514384
    },
    {
      "type": "node",
      "id": 2516718652,
      "lat": 53.3421101,
      "lon": -6.1512987
    },
    {
      "type": "node",
      "id": 2516718654,
      "lat": 53.3421204,
      "lon": -6.151434
    },
    {
      "type": "node",
      "id": 2516718655,
      "lat": 53.3421299,
      "lon": -6.1513111
    },
    {
      "type": "node",
      "id": 2516718656,
      "lat": 53.3421362,
      "lon": -6.1514166
    },
    {
      "type": "node",
      "id": 2516718657,
      "lat": 53.3421422,
      "lon": -6.1513336
    },
    {
      "type": "node",
      "id": 2516718658,
      "lat": 53.3421439,
      "lon": -6.1513977
    },
    {
      "type": "node",
      "id": 2516718659,
      "lat": 53.3421454,
      "lon": -6.1513455
    },
    {
      "type": "node",
      "id": 2516718660,
      "lat": 53.3421476,
      "lon": -6.151373
    },
    {
      "type": "node",
      "id": 2516965899,
      "lat": 53.3614496,
      "lon": -6.052359
    },
    {
      "type": "node",
      "id": 2516965900,
      "lat": 53.3614504,
      "lon": -6.0523251
    },
    {
      "type": "node",
      "id": 2516965901,
      "lat": 53.3614602,
      "lon": -6.0522885
    },
    {
      "type": "node",
      "id": 2516965902,
      "lat": 53.3614658,
      "lon": -6.0523834
    },
    {
      "type": "node",
      "id": 2516965903,
      "lat": 53.3614788,
      "lon": -6.0522749
    },
    {
      "type": "node",
      "id": 2516965904,
      "lat": 53.3614861,
      "lon": -6.052397
    },
    {
      "type": "node",
      "id": 2516965905,
      "lat": 53.3614901,
      "lon": -6.0524187
    },
    {
      "type": "node",
      "id": 2516965906,
      "lat": 53.3614998,
      "lon": -6.0524824
    },
    {
      "type": "node",
      "id": 2516965907,
      "lat": 53.3615192,
      "lon": -6.0523061
    },
    {
      "type": "node",
      "id": 2516965908,
      "lat": 53.36152,
      "lon": -6.0525082
    },
    {
      "type": "node",
      "id": 2516965909,
      "lat": 53.3615338,
      "lon": -6.0522966
    },
    {
      "type": "node",
      "id": 2516965910,
      "lat": 53.3615395,
      "lon": -6.0525231
    },
    {
      "type": "node",
      "id": 2516965911,
      "lat": 53.3615581,
      "lon": -6.0522912
    },
    {
      "type": "node",
      "id": 2516965912,
      "lat": 53.3615605,
      "lon": -6.0525258
    },
    {
      "type": "node",
      "id": 2516965913,
      "lat": 53.3615832,
      "lon": -6.0525163
    },
    {
      "type": "node",
      "id": 2516965914,
      "lat": 53.3615864,
      "lon": -6.0523034
    },
    {
      "type": "node",
      "id": 2516965915,
      "lat": 53.3616058,
      "lon": -6.0524892
    },
    {
      "type": "node",
      "id": 2516965916,
      "lat": 53.3616115,
      "lon": -6.0523319
    },
    {
      "type": "node",
      "id": 2516965917,
      "lat": 53.3616196,
      "lon": -6.0524621
    },
    {
      "type": "node",
      "id": 2516965918,
      "lat": 53.3616285,
      "lon": -6.0523753
    },
    {
      "type": "node",
      "id": 2516965919,
      "lat": 53.3616285,
      "lon": -6.0524214
    },
    {
      "type": "node",
      "id": 5375475829,
      "lat": 54.7669822,
      "lon": -5.6889928
    },
    {
      "type": "node",
      "id": 5375475843,
      "lat": 54.7669928,
      "lon": -5.688937
    },
    {
      "type": "node",
      "id": 5375475847,
      "lat": 54.7669406,
      "lon": -5.6889662
    },
    {
      "type": "node",
      "id": 5375475848,
      "lat": 54.766955,
      "lon": -5.6889104
    },
    {
      "type": "node",
      "id": 5375475852,
      "lat": 54.7669419,
      "lon": -5.6889338
    },
    {
      "type": "node",
      "id": 5375475860,
      "lat": 54.7669717,
      "lon": -5.6889064
    },
    {
      "type": "node",
      "id": 5375475863,
      "lat": 54.7669944,
      "lon": -5.6889532
    },
    {
      "type": "node",
      "id": 5375475868,
      "lat": 54.7669396,
      "lon": -5.6889498
    },
    {
      "type": "node",
      "id": 5375475871,
      "lat": 54.766964,
      "lon": -5.6890005
    },
    {
      "type": "node",
      "id": 5375475873,
      "lat": 54.7669807,
      "lon": -5.688912
    },
    {
      "type": "node",
      "id": 5375475874,
      "lat": 54.7669622,
      "lon": -5.6889064
    },
    {
      "type": "node",
      "id": 5375475875,
      "lat": 54.766988,
      "lon": -5.6889227
    },
    {
      "type": "node",
      "id": 5375475876,
      "lat": 54.7669473,
      "lon": -5.6889201
    },
    {
      "type": "node",
      "id": 5375475877,
      "lat": 54.7669933,
      "lon": -5.6889666
    },
    {
      "type": "node",
      "id": 5375475879,
      "lat": 54.7669471,
      "lon": -5.6889861
    },
    {
      "type": "node",
      "id": 5375475882,
      "lat": 54.7669735,
      "lon": -5.6889994
    },
    {
      "type": "node",
      "id": 5375475883,
      "lat": 54.7669548,
      "lon": -5.6889959
    },
    {
      "type": "node",
      "id": 5375475884,
      "lat": 54.7669891,
      "lon": -5.6889814
    }
  ]
}